original_Place,original_Count,lat,lon,formatted,suburb,district,name,postcode,county_code,city,county,state,state_code,country,country_code,confidence,confidence_city_level,attribution,attribution_license,attribution_url
Aachen,2,50.776351,6.083862,"Aachen, NW, Deutschland",,,,,,Aachen,Städteregion Aachen,Nordrhein-Westfalen,NW,Deutschland,de,1,1,© OpenStreetMap contributors,Open Database License,https://www.openstreetmap.org/copyright
Ahlden,2,52.7591196,9.5515675,"Ahlden, NI, Deutschland",,,,,,Ahlden,Heidekreis,Niedersachsen,NI,Deutschland,de,1,1,© OpenStreetMap contributors,Open Database License,https://www.openstreetmap.org/copyright
Altdorf,3,48.5950276,9.2712933,"72655 Altdorf, Deutschland",,,,72655,,Altdorf,Landkreis Esslingen,Baden-Württemberg,BW,Deutschland,de,1,1,© OpenStreetMap contributors,Open Database License,https://www.openstreetmap.org/copyright
Altona,2,53.58646755,9.777669726868917,"Altona, Hamburg, Deutschland",,Altona,,,,Hamburg,,Altona,,Deutschland,de,1,1,© OpenStreetMap contributors,Open Database License,https://www.openstreetmap.org/copyright
Amsterdam,7,52.3730796,4.8924534,"Amsterdam, Nordholland, Niederlande",,,,,,Amsterdam,,Nordholland,,Niederlande,nl,1,1,© OpenStreetMap contributors,Open Database License,https://www.openstreetmap.org/copyright
Ansbach,6,49.9181475,9.6217529,"97849 Ansbach (Ansbach), Deutschland",,,Ansbach,97849,,Ansbach,Landkreis Main-Spessart,Bayern,BY,Deutschland,de,1,1,© OpenStreetMap contributors,Open Database License,https://www.openstreetmap.org/copyright
Antwerpen,1,51.2211097,4.3997081,"Antwerpen, VAN, Belgien",,,,,,Antwerpen,Antwerpen,Antwerpen,VAN,Belgien,be,1,1,© OpenStreetMap contributors,Open Database License,https://www.openstreetmap.org/copyright
Aquileja,1,45.7696144,13.3697982,"33051 Aquileja, Italien",,,,33051,UD,Aquileja,Udine,Friaul-Julisch Venetien,,Italien,it,1,1,© OpenStreetMap contributors,Open Database License,https://www.openstreetmap.org/copyright
Astrachan,1,46.3498308,48.0326203,"Astrachan, Oblast Astrachan, Russland, 414000",,,Astrachan,414000,,Astrachan,городской округ Астрахань,Oblast Astrachan,,Russland,ru,1,1,© OpenStreetMap contributors,Open Database License,https://www.openstreetmap.org/copyright
Augsburg,3,48.3690341,10.8979522,"Augsburg, BY, Deutschland",,,,,,Augsburg,,Bayern,BY,Deutschland,de,1,1,© OpenStreetMap contributors,Open Database License,https://www.openstreetmap.org/copyright
Avranches,3,48.688247849999996,-1.3633854644553556,"Avranches, NOR, Frankreich",,Avranches,,50300,,Avranches,Manche,Normandie,NOR,Frankreich,fr,1,1,© OpenStreetMap contributors,Open Database License,https://www.openstreetmap.org/copyright
Bamberg,2,49.8916044,10.8868478,"Bamberg, BY, Deutschland",,,,,,Bamberg,,Bayern,BY,Deutschland,de,1,1,© OpenStreetMap contributors,Open Database License,https://www.openstreetmap.org/copyright
Barcelona,4,41.3828939,2.1774322,"08001 Barcelona, Spanien",,,,08001,,Barcelona,Barcelonès,Katalonien,,Spanien,es,1,1,© OpenStreetMap contributors,Open Database License,https://www.openstreetmap.org/copyright
Bayreuth,4,49.9427202,11.5763079,"Bayreuth, BY, Deutschland",,,,,,Bayreuth,,Bayern,BY,Deutschland,de,1,1,© OpenStreetMap contributors,Open Database License,https://www.openstreetmap.org/copyright
Beichlingen,4,51.2332814,11.2547956,"Beichlingen (Kölleda), TH, Deutschland",,,,,,Kölleda,Landkreis Sömmerda,Thüringen,TH,Deutschland,de,1,1,© OpenStreetMap contributors,Open Database License,https://www.openstreetmap.org/copyright
Belgrad,7,44.8178131,20.4568974,"Belgrad, Zentralserbien, Serbien",,,Belgrad,,,Belgrad,Stadt Belgrad,Zentralserbien,,Serbien,rs,1,1,© OpenStreetMap contributors,Open Database License,https://www.openstreetmap.org/copyright
Bender,2,46.8218177,29.4819196,"Stadtkreis Bendery, Pridnestrowien, Moldau",,,,,,Stadtkreis Bendery,,Pridnestrowien,,Moldau,md,1,1,© OpenStreetMap contributors,Open Database License,https://www.openstreetmap.org/copyright
Berlin,172,52.5170365,13.3888599,"Berlin, Deutschland",,,,,,Berlin,,,,Deutschland,de,1,1,© OpenStreetMap contributors,Open Database License,https://www.openstreetmap.org/copyright
Bevern,7,53.7555192,9.7711499,"Bevern, SH, Deutschland",,,,,,Bevern,Kreis Pinneberg,Schleswig-Holstein,SH,Deutschland,de,1,1,© OpenStreetMap contributors,Open Database License,https://www.openstreetmap.org/copyright
Blankenburg,3,51.2031236,10.7476184,"Blankenburg, TH, Deutschland",,,,,,Blankenburg,Unstrut-Hainich-Kreis,Thüringen,TH,Deutschland,de,1,1,© OpenStreetMap contributors,Open Database License,https://www.openstreetmap.org/copyright
Bonn,1,50.735851,7.10066,"Bonn, NW, Deutschland",,,,,,Bonn,,Nordrhein-Westfalen,NW,Deutschland,de,1,1,© OpenStreetMap contributors,Open Database License,https://www.openstreetmap.org/copyright
Borgholzhausen,1,52.1007247,8.3023897,"33829 Borgholzhausen, Deutschland",,,,33829,,Borgholzhausen,Kreis Gütersloh,Nordrhein-Westfalen,NW,Deutschland,de,1,1,© OpenStreetMap contributors,Open Database License,https://www.openstreetmap.org/copyright
Borgoforte,1,45.5207469,12.2549419,"30173 Borgoforte (Venedig), Italien",,,Borgoforte,30173,VE,Venedig,Venezia,Venetien,,Italien,it,1,1,© OpenStreetMap contributors,Open Database License,https://www.openstreetmap.org/copyright
Boulogne,1,46.7947224,-1.3210389,"85140 Boulogne (Essarts-en-Bocage), Frankreich",,,,85140,,Essarts-en-Bocage,Vendée,Pays de la Loire,PDL,Frankreich,fr,1,1,© OpenStreetMap contributors,Open Database License,https://www.openstreetmap.org/copyright
Bourg,1,45.0394689,-0.5596107,"33710 Bourg, Frankreich",,,,33710,,Bourg,Gironde,Neu-Aquitanien,,Frankreich,fr,1,1,© OpenStreetMap contributors,Open Database License,https://www.openstreetmap.org/copyright
Brandenburg,45,52.3362346,9.174755462956416,"Brandenburg, Stadthagen, NI, Deutschland",Brandenburg,,,,,Stadthagen,Landkreis Schaumburg,Niedersachsen,NI,Deutschland,de,1,1,© OpenStreetMap contributors,Open Database License,https://www.openstreetmap.org/copyright
Breda,1,51.5887845,4.7760237,"Breda, Nordbrabant, Niederlande",,,,,,Breda,,Nordbrabant,,Niederlande,nl,1,1,© OpenStreetMap contributors,Open Database License,https://www.openstreetmap.org/copyright
Bremen,3,53.0758196,8.8071646,"Bremen, HB, Deutschland",,,,,,Bremen,,Bremen,HB,Deutschland,de,1,1,© OpenStreetMap contributors,Open Database License,https://www.openstreetmap.org/copyright
Brescello,1,44.9012244,10.515728,"42041 Brescello, Italien",,,,42041,,Brescello,Reggio nell'Emilia,Emilia-Romagna,EMI,Italien,it,1,1,© OpenStreetMap contributors,Open Database License,https://www.openstreetmap.org/copyright
Breslau,6,51.1089776,17.0326689,"Breslau, Woiwodschaft Niederschlesien, Polen",,,,,,Breslau,,Woiwodschaft Niederschlesien,,Polen,pl,1,1,© OpenStreetMap contributors,Open Database License,https://www.openstreetmap.org/copyright
Bristol,1,51.4538022,-2.5972985,"Bristol, ENG, Vereinigtes Königreich",,,Bristol,,BST,Bristol,City of Bristol,England,ENG,Vereinigtes Königreich,gb,1,1,© OpenStreetMap contributors,Open Database License,https://www.openstreetmap.org/copyright
Bruchhausen,2,50.6024988,7.2536222,"Bruchhausen, RP, Deutschland",,,,,,Bruchhausen,Landkreis Neuwied,Rheinland-Pfalz,RP,Deutschland,de,1,1,© OpenStreetMap contributors,Open Database License,https://www.openstreetmap.org/copyright
Brüssel,3,50.8465573,4.351697,"Brüssel, Brüssel-Hauptstadt, Belgien",,,,,,Brüssel,Brüssel-Hauptstadt,Brüssel-Hauptstadt,,Belgien,be,1,1,© OpenStreetMap contributors,Open Database License,https://www.openstreetmap.org/copyright
Buckow,2,52.5786194,12.5450727,"Buckow (Nennhausen), BB, Deutschland",,,,,,Nennhausen,Havelland,Brandenburg,BB,Deutschland,de,1,1,© OpenStreetMap contributors,Open Database License,https://www.openstreetmap.org/copyright
Buda,3,47.4938673,19.0417582,"Buda, Budapest, Mittelungarn, Ungarn",Buda,I. Bezirk,Buda,1013,,Budapest,,Mittelungarn,,Ungarn,hu,1,1,© OpenStreetMap contributors,Open Database License,https://www.openstreetmap.org/copyright
Burgdorf,2,52.4438008,10.0078364,"31303 Burgdorf, Deutschland",,,,31303,,Burgdorf,Region Hannover,Niedersachsen,NI,Deutschland,de,1,1,© OpenStreetMap contributors,Open Database License,https://www.openstreetmap.org/copyright
Bückeburg,4,52.2611037,9.0488959,"31675 Bückeburg, Deutschland",,,,31675,,Bückeburg,Landkreis Schaumburg,Niedersachsen,NI,Deutschland,de,1,1,© OpenStreetMap contributors,Open Database License,https://www.openstreetmap.org/copyright
Cadiz,1,36.5297438,-6.2928976,"Cádiz, Andalusien, Spanien",,,,,,Cádiz,Bahía de Cádiz,Andalusien,,Spanien,es,1,1,© OpenStreetMap contributors,Open Database License,https://www.openstreetmap.org/copyright
Cambray,1,48.173771,1.7161944,"Cambray, Germignonville, Éole-en-Beauce, Zentrum-Loiretal, Frankreich",,Germignonville,Cambray,28140,,Éole-en-Beauce,Eure-et-Loir,Zentrum-Loiretal,,Frankreich,fr,1,1,© OpenStreetMap contributors,Open Database License,https://www.openstreetmap.org/copyright
Cambridge,2,52.2055314,0.1186637,"Cambridge, ENG, Vereinigtes Königreich",,,,,CAM,Cambridge,Cambridgeshire,England,ENG,Vereinigtes Königreich,gb,1,1,© OpenStreetMap contributors,Open Database License,https://www.openstreetmap.org/copyright
Campen,2,52.6667657,8.9491653,"Campen (Borstel), NI, Deutschland",,,,,,Borstel,Landkreis Diepholz,Niedersachsen,NI,Deutschland,de,1,1,© OpenStreetMap contributors,Open Database License,https://www.openstreetmap.org/copyright
Celle,75,52.624056,10.081052,"Celle, NI, Deutschland",,,,,,Celle,Landkreis Celle,Niedersachsen,NI,Deutschland,de,1,1,© OpenStreetMap contributors,Open Database License,https://www.openstreetmap.org/copyright
Charlottenburg,3,52.515747,13.3096834,"Charlottenburg, Berlin, Deutschland",Charlottenburg,Charlottenburg-Wilmersdorf,,,,Berlin,,,,Deutschland,de,1,1,© OpenStreetMap contributors,Open Database License,https://www.openstreetmap.org/copyright
Chios,1,45.2839665,7.4037719,"Chios, 10070 Mezzenile, Italien",,,Chios,10070,,Mezzenile,Turin,Piemont,,Italien,it,1,1,© OpenStreetMap contributors,Open Database License,https://www.openstreetmap.org/copyright
Clausthal,1,51.8043301,10.3338277,"Clausthal, Clausthal-Zellerfeld, NI, Deutschland",Clausthal,Clausthal-Zellerfeld,Clausthal,38678,,Clausthal-Zellerfeld,Landkreis Goslar,Niedersachsen,NI,Deutschland,de,1,1,© OpenStreetMap contributors,Open Database License,https://www.openstreetmap.org/copyright
Condom,1,43.9564563,0.3745929,"32100 Condom, Frankreich",,,,32100,,Condom,Gers,Okzitanien,,Frankreich,fr,1,1,© OpenStreetMap contributors,Open Database License,https://www.openstreetmap.org/copyright
Coppenbrügge,1,52.1202595,9.5493252,"31863 Coppenbrügge, Deutschland",,,,31863,,Coppenbrügge,Landkreis Hameln-Pyrmont,Niedersachsen,NI,Deutschland,de,1,1,© OpenStreetMap contributors,Open Database License,https://www.openstreetmap.org/copyright
Crossen,1,50.7585157,12.4841995,"Crossen, Zwickau, SN, Deutschland",Crossen,Zwickau-Nord,,,,Zwickau,Zwickau,Sachsen,SN,Deutschland,de,1,1,© OpenStreetMap contributors,Open Database License,https://www.openstreetmap.org/copyright
Danzig,3,54.3482907,18.6540233,"Danzig, Woiwodschaft Pommern, Polen",,,,,,Danzig,,Woiwodschaft Pommern,,Polen,pl,1,1,© OpenStreetMap contributors,Open Database License,https://www.openstreetmap.org/copyright
Den Haag,8,52.0799838,4.3113461,"Den Haag, Südholland, Niederlande",,,,,,Den Haag,,Südholland,,Niederlande,nl,1,1,© OpenStreetMap contributors,Open Database License,https://www.openstreetmap.org/copyright
Detmold,1,51.936284,8.8791526,"Detmold, NW, Deutschland",,,,,,Detmold,Kreis Lippe,Nordrhein-Westfalen,NW,Deutschland,de,1,1,© OpenStreetMap contributors,Open Database License,https://www.openstreetmap.org/copyright
Dixmuiden,1,51.031578,2.863802,,,,,,,,,,,,,,,,,
Dohna,7,50.955232,13.8587012,"01809 Dohna, Deutschland",,,,01809,,Dohna,Sächsische Schweiz-Osterzgebirge,Sachsen,SN,Deutschland,de,1,1,© OpenStreetMap contributors,Open Database License,https://www.openstreetmap.org/copyright
Donauwörth,3,48.7180364,10.7807299,"86609 Donauwörth, Deutschland",,,,86609,,Donauwörth,Landkreis Donau-Ries,Bayern,BY,Deutschland,de,1,1,© OpenStreetMap contributors,Open Database License,https://www.openstreetmap.org/copyright
Dover,1,51.1251275,1.3134228,"Dover, ENG, Vereinigtes Königreich",,,,,KEN,Dover,Kent,England,ENG,Vereinigtes Königreich,gb,1,1,© OpenStreetMap contributors,Open Database License,https://www.openstreetmap.org/copyright
Dresden,12,51.0493286,13.7381437,"Dresden, SN, Deutschland",,,,,,Dresden,,Sachsen,SN,Deutschland,de,1,1,© OpenStreetMap contributors,Open Database License,https://www.openstreetmap.org/copyright
Düsseldorf,2,51.2254018,6.7763137,"Düsseldorf, NW, Deutschland",,,,,,Düsseldorf,,Nordrhein-Westfalen,NW,Deutschland,de,1,1,© OpenStreetMap contributors,Open Database License,https://www.openstreetmap.org/copyright
Ebstorf,8,53.0273634,10.4178494,"29574 Ebstorf, Deutschland",,,,29574,,Ebstorf,Uelzen,Niedersachsen,NI,Deutschland,de,1,1,© OpenStreetMap contributors,Open Database License,https://www.openstreetmap.org/copyright
Elbing,1,54.1558708,19.4044583,"Elbing, Woiwodschaft Ermland-Masuren, Polen",,,,,,Elbing,,Woiwodschaft Ermland-Masuren,,Polen,pl,1,1,© OpenStreetMap contributors,Open Database License,https://www.openstreetmap.org/copyright
Ephesus,1,37.949589,27.351896,"Ephesus, GA, Vereinigte Staaten von Amerika",,,,,,Ephesus,Heard County,Georgia,GA,Vereinigte Staaten von Amerika,us,1,1,© OpenStreetMap contributors,Open Database License,https://www.openstreetmap.org/copyright
Essen,7,51.4582235,7.0158171,"Essen, NW, Deutschland",,,,,,Essen,,Nordrhein-Westfalen,NW,Deutschland,de,1,1,© OpenStreetMap contributors,Open Database License,https://www.openstreetmap.org/copyright
Ferrara,1,44.8372737,11.6186451,"44121-44124 Ferrara, Italien",,,,44121-44124,FE,Ferrara,Ferrara,Emilia-Romagna,EMI,Italien,it,1,1,© OpenStreetMap contributors,Open Database License,https://www.openstreetmap.org/copyright
Florenz,4,43.7697955,11.2556404,"Florenz, Toskana, Italien",,,,,FI,Florenz,Firenze,Toskana,,Italien,it,1,1,© OpenStreetMap contributors,Open Database License,https://www.openstreetmap.org/copyright
Frankfurt,8,50.1106444,8.6820917,"Frankfurt am Main, HE, Deutschland",,,,,,Frankfurt am Main,,Hessen,HE,Deutschland,de,1,1,© OpenStreetMap contributors,Open Database License,https://www.openstreetmap.org/copyright
Freising,1,48.4008273,11.7439565,"Freising, BY, Deutschland",,,,,,Freising,Landkreis Freising,Bayern,BY,Deutschland,de,1,1,© OpenStreetMap contributors,Open Database License,https://www.openstreetmap.org/copyright
Fuentes,1,39.9503682,-2.0210007,"Fuentes, Kastilien-La Mancha, Spanien",,,,,CU,Fuentes,Cuenca,Kastilien-La Mancha,,Spanien,es,1,1,© OpenStreetMap contributors,Open Database License,https://www.openstreetmap.org/copyright
Fürstenberg,3,51.1719228,8.8340576,"Fürstenberg, HE, Deutschland",,,,,,Fürstenberg,Landkreis Waldeck-Frankenberg,Hessen,HE,Deutschland,de,1,1,© OpenStreetMap contributors,Open Database License,https://www.openstreetmap.org/copyright
Fürstenfeldbruck,1,48.1794705,11.2547202,"82256 Fürstenfeldbruck, Deutschland",,,,82256,,Fürstenfeldbruck,Landkreis Fürstenfeldbruck,Bayern,BY,Deutschland,de,1,1,© OpenStreetMap contributors,Open Database License,https://www.openstreetmap.org/copyright
Gandersheim,1,51.8704732,10.0297839,"37581 Bad Gandersheim, Deutschland",,,,37581,,Bad Gandersheim,Landkreis Northeim,Niedersachsen,NI,Deutschland,de,0.9,0.9,© OpenStreetMap contributors,Open Database License,https://www.openstreetmap.org/copyright
Genf,1,46.2017559,6.1466014,"Genf, Schweiz",,,,,,Genf,,Genf,,Schweiz,ch,1,1,© OpenStreetMap contributors,Open Database License,https://www.openstreetmap.org/copyright
Genua,2,44.40726,8.9338624,"Genua, Ligurien, Italien",,,,,,Genua,Genua,Ligurien,,Italien,it,1,1,© OpenStreetMap contributors,Open Database License,https://www.openstreetmap.org/copyright
Gibraltar,1,36.140807,-5.3541295,Gibraltar,,,,,,Gibraltar,,,,Gibraltar,gi,1,1,© OpenStreetMap contributors,Open Database License,https://www.openstreetmap.org/copyright
Glogau,1,51.6636791,16.0935567,"67-200 Glogau, Polen",,,,67-200,,Glogau,powiat głogowski,Woiwodschaft Niederschlesien,,Polen,pl,1,1,© OpenStreetMap contributors,Open Database License,https://www.openstreetmap.org/copyright
Goslar,1,51.9059936,10.4266284,"Goslar, NI, Deutschland",,,,,,Goslar,Landkreis Goslar,Niedersachsen,NI,Deutschland,de,1,1,© OpenStreetMap contributors,Open Database License,https://www.openstreetmap.org/copyright
Gotha,2,50.9494849,10.7014435,"Gotha, TH, Deutschland",,,,,,Gotha,Landkreis Gotha,Thüringen,TH,Deutschland,de,1,1,© OpenStreetMap contributors,Open Database License,https://www.openstreetmap.org/copyright
Graupen,2,50.6847005,13.8577518,"Graupen, Nordwesten, Tschechien",,,,,,Graupen,Aussiger Region,Nordwesten,,Tschechien,cz,1,1,© OpenStreetMap contributors,Open Database License,https://www.openstreetmap.org/copyright
Greifswald,1,54.095791,13.3815238,"Greifswald, MV, Deutschland",,,,,,Greifswald,Vorpommern-Greifswald,Mecklenburg-Vorpommern,MV,Deutschland,de,1,1,© OpenStreetMap contributors,Open Database License,https://www.openstreetmap.org/copyright
Großburgwedel,1,52.4914501,9.856156,"Großburgwedel, Burgwedel, NI, Deutschland",Großburgwedel,,Großburgwedel,30916,,Burgwedel,Region Hannover,Niedersachsen,NI,Deutschland,de,1,1,© OpenStreetMap contributors,Open Database License,https://www.openstreetmap.org/copyright
Gundelsheim,1,49.2844,9.16194,"74831 Gundelsheim, Deutschland",,,,74831,,Gundelsheim,Landkreis Heilbronn,Baden-Württemberg,BW,Deutschland,de,1,1,© OpenStreetMap contributors,Open Database License,https://www.openstreetmap.org/copyright
Göhrde,7,53.113067900000004,10.8339844095573,"Göhrde, NI, Deutschland",,,,,,Göhrde,Lüchow-Dannenberg,Niedersachsen,NI,Deutschland,de,1,1,© OpenStreetMap contributors,Open Database License,https://www.openstreetmap.org/copyright
Göteborg,2,57.7072326,11.9670171,"411 10 Göteborg, Schweden",,,Göteborg,411 10,,Göteborg,Provinz Västra Götaland,,,Schweden,se,1,1,© OpenStreetMap contributors,Open Database License,https://www.openstreetmap.org/copyright
Güstrow,1,53.799850,12.174457,,,,,,,,,,,,,,,,,
Hackelberg,1,51.8216625,8.994578,"Hackelberg, 32839 Steinheim, Deutschland",,,Hackelberg,32839,,Steinheim,Kreis Höxter,Nordrhein-Westfalen,NW,Deutschland,de,0,1,© OpenStreetMap contributors,Open Database License,https://www.openstreetmap.org/copyright
Halle,2,51.4825041,11.9705452,"Halle (Saale), ST, Deutschland",,,,,,Halle (Saale),,Sachsen-Anhalt,ST,Deutschland,de,1,1,© OpenStreetMap contributors,Open Database License,https://www.openstreetmap.org/copyright
Hamburg,16,53.550341,10.000654,"Hamburg, Deutschland",,,,,,Hamburg,,,,Deutschland,de,1,1,© OpenStreetMap contributors,Open Database License,https://www.openstreetmap.org/copyright
Hammerstein,7,50.4791213,7.3484233,"Hammerstein, RP, Deutschland",,,,,,Hammerstein,Landkreis Neuwied,Rheinland-Pfalz,RP,Deutschland,de,1,1,© OpenStreetMap contributors,Open Database License,https://www.openstreetmap.org/copyright
Hannover,264,52.3744779,9.7385532,"Hannover, NI, Deutschland",,,,,,Hannover,Region Hannover,Niedersachsen,NI,Deutschland,de,1,1,© OpenStreetMap contributors,Open Database License,https://www.openstreetmap.org/copyright
Harburg,4,53.4562216,9.9872112,"Harburg, Hamburg, Deutschland",Harburg,Harburg,,21073,,Hamburg,,,,Deutschland,de,1,1,© OpenStreetMap contributors,Open Database License,https://www.openstreetmap.org/copyright
Heidelberg,3,49.4093582,8.694724,"Heidelberg, BW, Deutschland",,,,,,Heidelberg,,Baden-Württemberg,BW,Deutschland,de,1,1,© OpenStreetMap contributors,Open Database License,https://www.openstreetmap.org/copyright
Helmstedt,9,52.2277037,11.0104702,"Helmstedt, NI, Deutschland",,,,,,Helmstedt,Landkreis Helmstedt,Niedersachsen,NI,Deutschland,de,1,1,© OpenStreetMap contributors,Open Database License,https://www.openstreetmap.org/copyright
Herford,1,52.1152245,8.6711118,"Herford, NW, Deutschland",,,,,,Herford,Kreis Herford,Nordrhein-Westfalen,NW,Deutschland,de,1,1,© OpenStreetMap contributors,Open Database License,https://www.openstreetmap.org/copyright
Herzberg,1,51.6565219,10.3428415,"37412 Herzberg am Harz, Deutschland",,,,37412,,Herzberg am Harz,Landkreis Göttingen,Niedersachsen,NI,Deutschland,de,1,1,© OpenStreetMap contributors,Open Database License,https://www.openstreetmap.org/copyright
Hildesheim,18,52.1521636,9.9513046,"Hildesheim, NI, Deutschland",,,,,,Hildesheim,Landkreis Hildesheim,Niedersachsen,NI,Deutschland,de,1,1,© OpenStreetMap contributors,Open Database License,https://www.openstreetmap.org/copyright
Homburg,1,49.3181673,7.3340336,"66424 Homburg, Deutschland",,,,66424,,Homburg,Saarpfalz-Kreis,Saarland,SL,Deutschland,de,1,1,© OpenStreetMap contributors,Open Database License,https://www.openstreetmap.org/copyright
Hundisburg,1,52.246722,11.4001176,"Hundisburg (Haldensleben), ST, Deutschland",,,,,,Haldensleben,Börde,Sachsen-Anhalt,ST,Deutschland,de,1,1,© OpenStreetMap contributors,Open Database License,https://www.openstreetmap.org/copyright
Idria,1,46.0023983,14.0273014,"Idria, Slowenien",,,,,,Idria,,,,Slowenien,si,1,1,© OpenStreetMap contributors,Open Database License,https://www.openstreetmap.org/copyright
Ingenheim,1,48.7351268,7.5193525,"67270 Ingenheim, Frankreich",,,,67270,,Ingenheim,Unterelsass,Grand Est,GES,Frankreich,fr,1,1,© OpenStreetMap contributors,Open Database License,https://www.openstreetmap.org/copyright
Innsbruck,2,47.2654296,11.3927685,"Innsbruck, Tirol, Österreich",,,,,,Innsbruck,,Tirol,,Österreich,at,1,1,© OpenStreetMap contributors,Open Database License,https://www.openstreetmap.org/copyright
Jena,3,50.9281717,11.5879359,"Jena, TH, Deutschland",,,,,,Jena,,Thüringen,TH,Deutschland,de,1,1,© OpenStreetMap contributors,Open Database License,https://www.openstreetmap.org/copyright
Jerusalem,1,31.7788242,35.2257626,"Jerusalem, Bezirk Jerusalem, Israel",,,,,,Jerusalem,נפת ירושלים,Bezirk Jerusalem,,Israel,il,1,1,© OpenStreetMap contributors,Open Database License,https://www.openstreetmap.org/copyright
Kairo,2,30.0443879,31.2357257,"Kairo, Ägypten",,,Kairo,,,Kairo,,Kairo,,Ägypten,eg,1,1,© OpenStreetMap contributors,Open Database License,https://www.openstreetmap.org/copyright
Karlsbad,7,50.2306216,12.8701437,"Karlsbad, Nordwesten, Tschechien",,,,,,Karlsbad,Karlsbader Region,Nordwesten,,Tschechien,cz,1,1,© OpenStreetMap contributors,Open Database License,https://www.openstreetmap.org/copyright
Kasan,1,55.7823547,49.1242266,"Kasan, Tatarstan, Russland",,,,,,Kasan,,Tatarstan,,Russland,ru,1,1,© OpenStreetMap contributors,Open Database License,https://www.openstreetmap.org/copyright
Kassel,11,51.3154546,9.4924096,"Kassel, HE, Deutschland",,,,,,Kassel,,Hessen,HE,Deutschland,de,1,1,© OpenStreetMap contributors,Open Database License,https://www.openstreetmap.org/copyright
Kehl,1,48.5728929,7.8109768,"77694 Kehl, Deutschland",,,,77694,,Kehl,Ortenaukreis,Baden-Württemberg,BW,Deutschland,de,1,1,© OpenStreetMap contributors,Open Database License,https://www.openstreetmap.org/copyright
Kiel,1,54.3227085,10.135555,"Kiel, SH, Deutschland",,,,,,Kiel,,Schleswig-Holstein,SH,Deutschland,de,1,1,© OpenStreetMap contributors,Open Database License,https://www.openstreetmap.org/copyright
Kiew,1,50.4500336,30.5241361,"Kiew, Ukraine",,,,,,Kiew,,,,Ukraine,ua,1,1,© OpenStreetMap contributors,Open Database License,https://www.openstreetmap.org/copyright
Kliszów,2,50.6164912,20.5216504,"Kliszów, Woiwodschaft Heiligkreuz, Polen",,,,,,Kliszów,powiat pińczowski,Woiwodschaft Heiligkreuz,,Polen,pl,1,1,© OpenStreetMap contributors,Open Database License,https://www.openstreetmap.org/copyright
Kniphausen,2,53.5536431,8.0552525,"Kniphausen, 26388 Fedderwarden (Wilhelmshaven), Deutschland",,,Kniphausen,26388,,Wilhelmshaven,,Niedersachsen,NI,Deutschland,de,1,1,© OpenStreetMap contributors,Open Database License,https://www.openstreetmap.org/copyright
Koblenz,1,50.3533278,7.5943951,"Koblenz, RP, Deutschland",,,,,,Koblenz,,Rheinland-Pfalz,RP,Deutschland,de,1,1,© OpenStreetMap contributors,Open Database License,https://www.openstreetmap.org/copyright
Konstantinopel,4,41.006381,28.9758715,"34122 Fatih (Istanbul), Türkei",,,Istanbul,34122,,Istanbul,İstanbul,Marmararegion,,Türkei,tr,0.675,0.675,© OpenStreetMap contributors,Open Database License,https://www.openstreetmap.org/copyright
Kopenhagen,1,55.6867243,12.5700724,"Indre By, Kopenhagen, Hauptstadtregion, Dänemark",,Indre By,Kopenhagen,1357,,Kopenhagen,,Hauptstadtregion,,Dänemark,dk,1,1,© OpenStreetMap contributors,Open Database License,https://www.openstreetmap.org/copyright
Krakau,13,50.0619474,19.9368564,"Krakau, Woiwodschaft Kleinpolen, Polen",,,,,,Krakau,,Woiwodschaft Kleinpolen,,Polen,pl,1,1,© OpenStreetMap contributors,Open Database License,https://www.openstreetmap.org/copyright
Kärnten,1,46.9065611,13.5359844,"9853 Gmünd in Kärnten, Österreich",,,,9853,,Gmünd in Kärnten,Bezirk Spittal an der Drau,Kärnten,,Österreich,at,0.81,0.81,© OpenStreetMap contributors,Open Database License,https://www.openstreetmap.org/copyright
Köln,11,50.938361,6.959974,"Köln, NW, Deutschland",,,,,,Köln,,Nordrhein-Westfalen,NW,Deutschland,de,1,1,© OpenStreetMap contributors,Open Database License,https://www.openstreetmap.org/copyright
Königsberg,1,54.700767,20.491625,"968 01 Königsberg, Slowakei",,,,968 01,,Königsberg,okres Žarnovica,Neusohler Landschaftsverband,,Slowakei,sk,1,1,© OpenStreetMap contributors,Open Database License,https://www.openstreetmap.org/copyright
Königsmarck,8,53.6004642,9.4709801,"Königsmarck-Bastion, 21682 Stade, Deutschland",Kopenkamp,,Königsmarck-Bastion,21682,,Stade,Landkreis Stade,Niedersachsen,NI,Deutschland,de,0,0.9,© OpenStreetMap contributors,Open Database License,https://www.openstreetmap.org/copyright
Königstein,3,50.9185261,14.0732271,"01824 Königstein, Deutschland",,,,01824,,Königstein,Sächsische Schweiz-Osterzgebirge,Sachsen,SN,Deutschland,de,1,1,© OpenStreetMap contributors,Open Database License,https://www.openstreetmap.org/copyright
Köpenick,2,52.4450491,13.5754153,"Köpenick, Berlin, Deutschland",Köpenick,Treptow-Köpenick,,,,Berlin,,,,Deutschland,de,1,1,© OpenStreetMap contributors,Open Database License,https://www.openstreetmap.org/copyright
Lamspringe,3,51.9597621,10.009887,"Lamspringe, NI, Deutschland",,,,,,Lamspringe,Landkreis Hildesheim,Niedersachsen,NI,Deutschland,de,1,1,© OpenStreetMap contributors,Open Database License,https://www.openstreetmap.org/copyright
Landsberg,1,51.5253758,12.1624395,"06188 Landsberg, Deutschland",,,,06188,,Landsberg,Saalekreis,Sachsen-Anhalt,ST,Deutschland,de,1,1,© OpenStreetMap contributors,Open Database License,https://www.openstreetmap.org/copyright
Lauenburg,2,53.3789803,10.5513889,"21481 Lauenburg/Elbe, Deutschland",,,,21481,,Lauenburg/Elbe,Herzogtum Lauenburg,Schleswig-Holstein,SH,Deutschland,de,0.9,0.9,© OpenStreetMap contributors,Open Database License,https://www.openstreetmap.org/copyright
Laxenburg,2,48.0686831,16.3561206,"2361 Laxenburg (Gemeinde Laxenburg), Österreich",,,Laxenburg,2361,,Gemeinde Laxenburg,Bezirk Mödling,Niederösterreich,,Österreich,at,1,1,© OpenStreetMap contributors,Open Database License,https://www.openstreetmap.org/copyright
Lehnin,3,52.3173613,12.7437812,"Lehnin, Kloster Lehnin, BB, Deutschland",Lehnin,,,,,Kloster Lehnin,Potsdam-Mittelmark,Brandenburg,BB,Deutschland,de,1,1,© OpenStreetMap contributors,Open Database License,https://www.openstreetmap.org/copyright
Leipzig,8,51.3406321,12.3747329,"Leipzig, SN, Deutschland",,,,,,Leipzig,,Sachsen,SN,Deutschland,de,1,1,© OpenStreetMap contributors,Open Database License,https://www.openstreetmap.org/copyright
Lenzen,3,53.0899,11.0095,"29481 Lenzen (Lenzen), Deutschland",,,Lenzen,29481,,Lenzen,Lüchow-Dannenberg,Niedersachsen,NI,Deutschland,de,1,1,© OpenStreetMap contributors,Open Database License,https://www.openstreetmap.org/copyright
Linsburg,18,52.5936072,9.3040316,"31636 Linsburg, Deutschland",,,,31636,,Linsburg,Landkreis Nienburg/Weser,Niedersachsen,NI,Deutschland,de,1,1,© OpenStreetMap contributors,Open Database License,https://www.openstreetmap.org/copyright
Linz,3,48.3059078,14.286198,"Linz, Oberösterreich, Österreich",,,,,,Linz,,Oberösterreich,,Österreich,at,1,1,© OpenStreetMap contributors,Open Database License,https://www.openstreetmap.org/copyright
Loccum,9,52.4546364,9.1462122,"31547 Loccum (Rehburg-Loccum), Deutschland",,,,31547,,Rehburg-Loccum,Landkreis Nienburg/Weser,Niedersachsen,NI,Deutschland,de,1,1,© OpenStreetMap contributors,Open Database License,https://www.openstreetmap.org/copyright
London,11,51.5074456,-0.1277653,"London, ENG, Vereinigtes Königreich",,,London,,,London,Groß-London,England,ENG,Vereinigtes Königreich,gb,1,1,© OpenStreetMap contributors,Open Database License,https://www.openstreetmap.org/copyright
Loreto,2,43.439498,13.6070214,"60025 Loreto, Italien",,,,60025,AN,Loreto,Ancona,Marken,,Italien,it,1,1,© OpenStreetMap contributors,Open Database License,https://www.openstreetmap.org/copyright
Lyon,3,45.7578137,4.8320114,"Lyon, Auvergne-Rhone-Alpen, Frankreich",,,,,,Lyon,Métropole de Lyon,Auvergne-Rhone-Alpen,,Frankreich,fr,1,1,© OpenStreetMap contributors,Open Database License,https://www.openstreetmap.org/copyright
Lübeck,1,53.866444,10.684738,"Lübeck, SH, Deutschland",,,,,,Lübeck,,Schleswig-Holstein,SH,Deutschland,de,1,1,© OpenStreetMap contributors,Open Database License,https://www.openstreetmap.org/copyright
Lüneborg,1,53.248706,10.407855,"Lüneburg, NI, Deutschland",,,,,,Lüneburg,Lüneburg,Niedersachsen,NI,Deutschland,de,0.7875,0.7875,© OpenStreetMap contributors,Open Database License,https://www.openstreetmap.org/copyright
Lüneburg,14,53.248706,10.407855,"Lüneburg, NI, Deutschland",,,,,,Lüneburg,Lüneburg,Niedersachsen,NI,Deutschland,de,1,1,© OpenStreetMap contributors,Open Database License,https://www.openstreetmap.org/copyright
Lüttich,5,50.6450944,5.5736112,"4000 Lüttich, Belgien",,,,4000,,Lüttich,Lüttich,Lüttich,,Belgien,be,1,1,© OpenStreetMap contributors,Open Database License,https://www.openstreetmap.org/copyright
Maastricht,2,50.8512438,5.6909768,"Maastricht, LI, Niederlande",,,,,,Maastricht,,Limburg,LI,Niederlande,nl,1,1,© OpenStreetMap contributors,Open Database License,https://www.openstreetmap.org/copyright
Madrid,2,40.4167047,-3.7035825,"Madrid, Autonome Gemeinschaft Madrid, Spanien",,,,,,Madrid,,Autonome Gemeinschaft Madrid,,Spanien,es,1,1,© OpenStreetMap contributors,Open Database License,https://www.openstreetmap.org/copyright
Magdeburg,10,52.1315889,11.6399609,"Magdeburg, ST, Deutschland",,,,,,Magdeburg,,Sachsen-Anhalt,ST,Deutschland,de,1,1,© OpenStreetMap contributors,Open Database License,https://www.openstreetmap.org/copyright
Mailand,5,45.4641943,9.1896346,"Mailand, Lombardei, Italien",,,,,,Mailand,Mailand,Lombardei,,Italien,it,1,1,© OpenStreetMap contributors,Open Database License,https://www.openstreetmap.org/copyright
Maintenon,4,48.5865517,1.5773313,"28130 Maintenon, Frankreich",,,,28130,,Maintenon,Eure-et-Loir,Zentrum-Loiretal,,Frankreich,fr,1,1,© OpenStreetMap contributors,Open Database License,https://www.openstreetmap.org/copyright
Mainz,5,50.0012314,8.2762513,"Mainz, RP, Deutschland",,,,,,Mainz,,Rheinland-Pfalz,RP,Deutschland,de,1,1,© OpenStreetMap contributors,Open Database License,https://www.openstreetmap.org/copyright
Malchow,2,53.483907,12.44271993467909,"Malchow, MV, Deutschland",,,,,,Malchow,Mecklenburgische Seenplatte,Mecklenburg-Vorpommern,MV,Deutschland,de,1,1,© OpenStreetMap contributors,Open Database License,https://www.openstreetmap.org/copyright
Malta,1,35.879283,14.448415,Malta ,,,,,,Malta,,Illinois,IL,Vereinigte Staaten von Amerika,us,1,1,© OpenStreetMap contributors,Open Database License,https://www.openstreetmap.org/copyright
Mantua,3,45.1566683,10.7917191,"46100 Mantua, Italien",,,,46100,,Mantua,Mantua,Lombardei,,Italien,it,1,1,© OpenStreetMap contributors,Open Database License,https://www.openstreetmap.org/copyright
Marienbad,1,49.9739518,12.703319,"Marienbad, Nordwesten, Tschechien",,,,,,Marienbad,Karlsbader Region,Nordwesten,,Tschechien,cz,1,1,© OpenStreetMap contributors,Open Database License,https://www.openstreetmap.org/copyright
Marlborough,23,51.420753,-1.727615,"Marlborough, MA, Vereinigte Staaten von Amerika",,,,,,Marlborough,Middlesex County,Massachusetts,MA,Vereinigte Staaten von Amerika,us,1,1,© OpenStreetMap contributors,Open Database License,https://www.openstreetmap.org/copyright
Martinitz,1,50.5808469,15.5333055,"512 32 Merzdorf, Tschechien",,,,512 32,,Merzdorf,Reichenberger Region,Nordosten,,Tschechien,cz,0,,© OpenStreetMap contributors,Open Database License,https://www.openstreetmap.org/copyright
Maubuisson,4,45.0652957,-1.1387859,"Maubuisson, Carcans, Neu-Aquitanien, Frankreich",Maubuisson,,Maubuisson,33121,,Carcans,Gironde,Neu-Aquitanien,,Frankreich,fr,1,1,© OpenStreetMap contributors,Open Database License,https://www.openstreetmap.org/copyright
Meaux,14,48.9582708,2.8773541,"77100 Meaux, Frankreich",,,,77100,,Meaux,Seine-et-Marne,Île-de-France,IDF,Frankreich,fr,1,1,© OpenStreetMap contributors,Open Database License,https://www.openstreetmap.org/copyright
Mecklenburg,6,53.627685,11.396712,"Mecklenburg (Easton), MD 21601, Vereinigte Staaten von Amerika",,,Mecklenburg,21601,,Easton,Talbot County,Maryland,MD,Vereinigte Staaten von Amerika,us,1,1,© OpenStreetMap contributors,Open Database License,https://www.openstreetmap.org/copyright
Melle,1,52.200762,8.338667,"Melle, NI, Deutschland",,,,,,Melle,Landkreis Osnabrück,Niedersachsen,NI,Deutschland,de,1,1,© OpenStreetMap contributors,Open Database License,https://www.openstreetmap.org/copyright
Memel,1,55.7127529,21.1350469,"Klaipeda, Bezirk Memel, Litauen",,,,,,Klaipeda,Stadtgemeinde Memel,Bezirk Memel,,Litauen,lt,1,1,© OpenStreetMap contributors,Open Database License,https://www.openstreetmap.org/copyright
Merseburg,3,51.3564413,11.996148,"06217 Merseburg, Deutschland",,,,06217,,Merseburg,Saalekreis,Sachsen-Anhalt,ST,Deutschland,de,1,1,© OpenStreetMap contributors,Open Database License,https://www.openstreetmap.org/copyright
Meseritz,1,52.4448261,15.578637,"66-300 Meseritz, Polen",,,,66-300,,Meseritz,powiat międzyrzecki,Woiwodschaft Lebus,,Polen,pl,1,1,© OpenStreetMap contributors,Open Database License,https://www.openstreetmap.org/copyright
Modena,17,44.6458885,10.9255707,"Modena, EMI, Italien",,,,,MO,Modena,Modena,Emilia-Romagna,EMI,Italien,it,1,1,© OpenStreetMap contributors,Open Database License,https://www.openstreetmap.org/copyright
Monferrato,1,45.132564,8.454939,"Casale Monferrato (Casale Monferrato), Piemont, Italien",,Casale Monferrato,,,AL,Casale Monferrato,Alessandria,Piemont,,Italien,it,0.9,0.9,Who's On First,CC0,https://www.whosonfirst.org/docs/licenses/
Monmouth,2,51.810955,-2.716801,"Monmouth, IA, Vereinigte Staaten von Amerika",,,,,,Monmouth,Jackson County,Iowa,IA,Vereinigte Staaten von Amerika,us,1,1,© OpenStreetMap contributors,Open Database License,https://www.openstreetmap.org/copyright
Montepulciano,1,43.0945279,11.7826795,"53045 Montepulciano, Italien",,,,53045,SI,Montepulciano,Siena,Toskana,,Italien,it,1,1,© OpenStreetMap contributors,Open Database License,https://www.openstreetmap.org/copyright
Moskau,5,55.7505412,37.6174782,"Moskau, Russland",,,Moskau,,,Moskau,,Moskau,,Russland,ru,1,1,© OpenStreetMap contributors,Open Database License,https://www.openstreetmap.org/copyright
München,5,48.1371079,11.5753822,"München, BY, Deutschland",,,,,,München,,Bayern,BY,Deutschland,de,1,1,© OpenStreetMap contributors,Open Database License,https://www.openstreetmap.org/copyright
Münster,10,51.9625101,7.6251879,"Münster, NW, Deutschland",,,,,,Münster,,Nordrhein-Westfalen,NW,Deutschland,de,1,1,© OpenStreetMap contributors,Open Database License,https://www.openstreetmap.org/copyright
Namur,2,50.4665284,4.8661892,"Namur, WNA, Belgien",,,,,,Namur,Namur,Namur,WNA,Belgien,be,1,1,© OpenStreetMap contributors,Open Database License,https://www.openstreetmap.org/copyright
Nassau,2,50.310324,7.792458,"Nassau, Bahamas",,,Nassau,,,Nassau,,,,Bahamas,bs,1,1,© OpenStreetMap contributors,Open Database License,https://www.openstreetmap.org/copyright
Nauplia,1,37.5659229,22.8068782,"211 00 Nafplio (Δημοτική Ενότητα Ναυπλιέων), Griechenland",,,Nafplio,211 00,,Δημοτική Ενότητα Ναυπλιέων,Regionalbezirk Argolis,"Peloponnes, Westgriechenland und Ionische Inseln",,Griechenland,gr,1,1,© OpenStreetMap contributors,Open Database License,https://www.openstreetmap.org/copyright
Neapel,6,40.8358846,14.2487679,"Neapel, Kampanien, Italien",,,,,,Neapel,Metropolitanstadt Neapel,Kampanien,,Italien,it,1,1,© OpenStreetMap contributors,Open Database License,https://www.openstreetmap.org/copyright
Neuburg,3,53.9449473,11.5903337,"Neuburg, MV, Deutschland",,,,,,Neuburg,Nordwestmecklenburg,Mecklenburg-Vorpommern,MV,Deutschland,de,1,1,© OpenStreetMap contributors,Open Database License,https://www.openstreetmap.org/copyright
Newcastle,2,54.9738474,-1.6131572,"yes, Newcastle upon Tyne, ENG, Vereinigtes Königreich",,yes,,,,Newcastle upon Tyne,North of Tyne,England,ENG,Vereinigtes Königreich,gb,1,1,© OpenStreetMap contributors,Open Database License,https://www.openstreetmap.org/copyright
Nienburg,2,52.6410849,9.2181918,"31582 Nienburg/Weser, Deutschland",,,,31582,,Nienburg/Weser,Landkreis Nienburg/Weser,Niedersachsen,NI,Deutschland,de,0.9,0.9,© OpenStreetMap contributors,Open Database License,https://www.openstreetmap.org/copyright
Nimwegen,1,51.8474946,5.8637771,"Nimwegen, Geldern, Niederlande",,,,,,Nimwegen,,Geldern,,Niederlande,nl,1,1,© OpenStreetMap contributors,Open Database License,https://www.openstreetmap.org/copyright
Nizza,1,43.7009358,7.2683912,"Nizza, PAC, Frankreich",,,,,,Nizza,Seealpen,Provence-Alpes-Côte d'Azur,PAC,Frankreich,fr,1,1,© OpenStreetMap contributors,Open Database License,https://www.openstreetmap.org/copyright
Nola,1,40.9210826,14.5327402,"Nola, Kampanien, Italien",,,,,,Nola,Metropolitanstadt Neapel,Kampanien,,Italien,it,1,1,© OpenStreetMap contributors,Open Database License,https://www.openstreetmap.org/copyright
Nordhausen,5,51.5051574,10.7925317,"99734 Nordhausen, Deutschland",,,,99734,,Nordhausen,Landkreis Nordhausen,Thüringen,TH,Deutschland,de,1,1,© OpenStreetMap contributors,Open Database License,https://www.openstreetmap.org/copyright
Nürnberg,2,49.453872,11.077298,"Nürnberg, BY, Deutschland",,,,,,Nürnberg,,Bayern,BY,Deutschland,de,1,1,© OpenStreetMap contributors,Open Database License,https://www.openstreetmap.org/copyright
Oeynhausen,1,51.8140047,9.0527942,"Oeynhausen (Nieheim), NW, Deutschland",,,,,,Nieheim,Kreis Höxter,Nordrhein-Westfalen,NW,Deutschland,de,1,1,© OpenStreetMap contributors,Open Database License,https://www.openstreetmap.org/copyright
Oldenburg,1,53.1389753,8.2146017,"Oldenburg, NI, Deutschland",,,,,,Oldenburg,,Niedersachsen,NI,Deutschland,de,1,1,© OpenStreetMap contributors,Open Database License,https://www.openstreetmap.org/copyright
Orange,4,44.1371311,4.8078783,"84100 Orange, Frankreich",,,,84100,,Orange,Vaucluse,Provence-Alpes-Côte d'Azur,PAC,Frankreich,fr,1,1,© OpenStreetMap contributors,Open Database License,https://www.openstreetmap.org/copyright
Oranienbaum,1,51.7979734,12.4045328,"Oranienbaum, ST, Deutschland",,,,,,Oranienbaum,Wittenberg,Sachsen-Anhalt,ST,Deutschland,de,1,1,© OpenStreetMap contributors,Open Database License,https://www.openstreetmap.org/copyright
Oranienburg,10,52.7529379,13.2457591,"16515 Oranienburg, Deutschland",,,,16515,,Oranienburg,Oberhavel,Brandenburg,BB,Deutschland,de,1,1,© OpenStreetMap contributors,Open Database License,https://www.openstreetmap.org/copyright
Orléans,16,47.9027336,1.9086066,"Orléans, Zentrum-Loiretal, Frankreich",,,,,,Orléans,Loiret,Zentrum-Loiretal,,Frankreich,fr,1,1,© OpenStreetMap contributors,Open Database License,https://www.openstreetmap.org/copyright
Osnabruck,2,52.2719595,8.047635,"Osnabrück, NI, Deutschland",,,,,,Osnabrück,,Niedersachsen,NI,Deutschland,de,1,1,© OpenStreetMap contributors,Open Database License,https://www.openstreetmap.org/copyright
Osnabrück,13,52.2719595,8.047635,"Osnabrück, NI, Deutschland",,,,,,Osnabrück,,Niedersachsen,NI,Deutschland,de,1,1,© OpenStreetMap contributors,Open Database License,https://www.openstreetmap.org/copyright
Osterode,2,51.718274,10.257116,"Osterode, Woiwodschaft Ermland-Masuren, Polen",,,,,,Osterode,powiat ostródzki,Woiwodschaft Ermland-Masuren,,Polen,pl,1,1,© OpenStreetMap contributors,Open Database License,https://www.openstreetmap.org/copyright
Ostrog,1,45.8563252,15.3770022,"8311 Ostrog (Ostrog), Slowenien",,,Ostrog,8311,,Ostrog,,,,Slowenien,si,1,1,© OpenStreetMap contributors,Open Database License,https://www.openstreetmap.org/copyright
Paderborn,1,51.7177044,8.752653,"Paderborn, NW, Deutschland",,,,,,Paderborn,Kreis Paderborn,Nordrhein-Westfalen,NW,Deutschland,de,1,1,© OpenStreetMap contributors,Open Database License,https://www.openstreetmap.org/copyright
Pamiers,1,43.1147515,1.6082177,"09100 Pamiers, Frankreich",,,,09100,,Pamiers,Ariège,Okzitanien,,Frankreich,fr,1,1,© OpenStreetMap contributors,Open Database License,https://www.openstreetmap.org/copyright
Paris,30,48.8534951,2.3483915,"Paris, IDF, Frankreich",,,,,,Paris,,Île-de-France,IDF,Frankreich,fr,1,1,© OpenStreetMap contributors,Open Database License,https://www.openstreetmap.org/copyright
Peine,1,52.3217849,10.2349489,"Peine, NI, Deutschland",,,,,,Peine,Landkreis Peine,Niedersachsen,NI,Deutschland,de,1,1,© OpenStreetMap contributors,Open Database License,https://www.openstreetmap.org/copyright
Peking,1,39.9057136,116.3912972,"100010 Peking, China",,,Peking,100010,,Peking,,Peking,,China,cn,1,1,© OpenStreetMap contributors,Open Database License,https://www.openstreetmap.org/copyright
Pembroke,2,51.674083,-4.912419,"Pembroke, ON K8A 5M5, Kanada",,,Pembroke,K8A 5M5,,Pembroke,Pembroke,Ontario,ON,Kanada,ca,1,1,© OpenStreetMap contributors,Open Database License,https://www.openstreetmap.org/copyright
Petersburg,3,59.938732,30.316229,"Sankt Petersburg, Russland",,,Sankt Petersburg,,,Sankt Petersburg,,Sankt Petersburg,,Russland,ru,1,1,© OpenStreetMap contributors,Open Database License,https://www.openstreetmap.org/copyright
Peterwardein,2,45.2426175,19.8820073,"Peterwardein, Wojwodina, Serbien",,,,,,Peterwardein,Bezirk Südliche Batschka,Wojwodina,,Serbien,rs,1,1,© OpenStreetMap contributors,Open Database License,https://www.openstreetmap.org/copyright
Philippsburg,3,49.2367495,8.4546679,"76661 Philippsburg, Deutschland",,,,76661,,Philippsburg,Landkreis Karlsruhe,Baden-Württemberg,BW,Deutschland,de,1,1,© OpenStreetMap contributors,Open Database License,https://www.openstreetmap.org/copyright
Pinneberg,1,53.6558152,9.8016369,"25421 Pinneberg, Deutschland",,,,25421,,Pinneberg,Kreis Pinneberg,Schleswig-Holstein,SH,Deutschland,de,1,1,© OpenStreetMap contributors,Open Database License,https://www.openstreetmap.org/copyright
Plittersdorf,1,50.4995681,6.9096481,"Plittersdorf, RP, Deutschland",,,,,,Plittersdorf,Landkreis Ahrweiler,Rheinland-Pfalz,RP,Deutschland,de,1,1,© OpenStreetMap contributors,Open Database License,https://www.openstreetmap.org/copyright
Porto,1,41.1494512,-8.6107884,"Porto, Portugal",,,,,,Porto,Porto,,,Portugal,pt,1,1,© OpenStreetMap contributors,Open Database License,https://www.openstreetmap.org/copyright
Posen,2,50.6435158,11.6905074,"Posen (Neustadt an der Orla), TH, Deutschland",,,,,,Neustadt an der Orla,Saale-Orla-Kreis,Thüringen,TH,Deutschland,de,1,1,© OpenStreetMap contributors,Open Database License,https://www.openstreetmap.org/copyright
Potsdam,10,52.4009309,13.0591397,"Potsdam, BB, Deutschland",,,,,,Potsdam,,Brandenburg,BB,Deutschland,de,1,1,© OpenStreetMap contributors,Open Database License,https://www.openstreetmap.org/copyright
Pottendorf,1,48.1453578,15.4234938,"3383 Pöttendorf (Gemeinde Hürm), Österreich",,,Pöttendorf,3383,,Gemeinde Hürm,Bezirk Melk,Niederösterreich,,Österreich,at,1,1,© OpenStreetMap contributors,Open Database License,https://www.openstreetmap.org/copyright
Prag,2,50.0874654,14.4212535,"Hauptstadt Prag, Prag, Tschechien",,,,,,Hauptstadt Prag,,Prag,,Tschechien,cz,1,1,© OpenStreetMap contributors,Open Database License,https://www.openstreetmap.org/copyright
Pyrmont,6,51.982498,9.248401,"Pyrmont, Sydney, Neusüdwales, Australien",Pyrmont,,,2009,,Sydney,,Neusüdwales,,Australien,au,1,1,© OpenStreetMap contributors,Open Database License,https://www.openstreetmap.org/copyright
Quedlinburg,3,51.7855428,11.1519933,"Quedlinburg, ST, Deutschland",,,,,,Quedlinburg,Landkreis Harz,Sachsen-Anhalt,ST,Deutschland,de,1,1,© OpenStreetMap contributors,Open Database License,https://www.openstreetmap.org/copyright
Raab,3,47.687609,17.6346815,"Raab, Westtransdanubien, Ungarn",,,,,,Raab,Komitat Győr-Moson-Sopron,Westtransdanubien,,Ungarn,hu,1,1,© OpenStreetMap contributors,Open Database License,https://www.openstreetmap.org/copyright
Rantzau,9,53.78332935,9.829290758592013,"Rantzau, SH, Deutschland",,,,,,Rantzau,Kreis Pinneberg,Schleswig-Holstein,SH,Deutschland,de,1,1,© OpenStreetMap contributors,Open Database License,https://www.openstreetmap.org/copyright
Rappach,3,50.0655064,9.1442577,"Rappach, Mömbris, Heimbach, BY, Deutschland",Mömbris,,Rappach,63776,,Heimbach,Landkreis Aschaffenburg,Bayern,BY,Deutschland,de,1,1,© OpenStreetMap contributors,Open Database License,https://www.openstreetmap.org/copyright
Rastatt,1,48.8574209,8.2088088,"76437 Rastatt, Deutschland",,,,76437,,Rastatt,Landkreis Rastatt,Baden-Württemberg,BW,Deutschland,de,1,1,© OpenStreetMap contributors,Open Database License,https://www.openstreetmap.org/copyright
Ratzeburg,1,53.7011061,10.774288,"Ratzeburg, SH, Deutschland",,,,,,Ratzeburg,Herzogtum Lauenburg,Schleswig-Holstein,SH,Deutschland,de,1,1,© OpenStreetMap contributors,Open Database License,https://www.openstreetmap.org/copyright
Ravenna,1,44.4161414,12.2017617,"48121-48125 Ravenna, Italien",,,,48121-48125,RA,Ravenna,Ravenna,Emilia-Romagna,EMI,Italien,it,1,1,© OpenStreetMap contributors,Open Database License,https://www.openstreetmap.org/copyright
Regensburg,4,49.0195333,12.0974869,"Regensburg, BY, Deutschland",,,,,,Regensburg,,Bayern,BY,Deutschland,de,1,1,© OpenStreetMap contributors,Open Database License,https://www.openstreetmap.org/copyright
Riga,3,56.9493977,24.1051846,"Riga, Lettland",,,,,,Riga,,,,Lettland,lv,1,1,© OpenStreetMap contributors,Open Database License,https://www.openstreetmap.org/copyright
Rijswijk,3,52.0446265,4.3188215,"Rijswijk, Südholland, Niederlande",,,,,,Rijswijk,,Südholland,,Niederlande,nl,1,1,© OpenStreetMap contributors,Open Database License,https://www.openstreetmap.org/copyright
Rom,32,41.8933203,12.4829321,"Rom, Latium, Italien",,,,,,Rom,Roma Capitale,Latium,,Italien,it,1,1,© OpenStreetMap contributors,Open Database License,https://www.openstreetmap.org/copyright
Rotterdam,1,51.9244424,4.47775,"Rotterdam, Südholland, Niederlande",,,,,,Rotterdam,,Südholland,,Niederlande,nl,1,1,© OpenStreetMap contributors,Open Database License,https://www.openstreetmap.org/copyright
Saint Cyr,1,49.4877114,-1.4194777,"50310 Saint-Cyr, Frankreich",,,,50310,,Saint-Cyr,Manche,Normandie,NOR,Frankreich,fr,1,1,© OpenStreetMap contributors,Open Database License,https://www.openstreetmap.org/copyright
Saint Germain,4,48.4324928,6.3386744,"54290 Saint-Germain, Frankreich",,,,54290,,Saint-Germain,Mörthe und Mosel,Grand Est,GES,Frankreich,fr,1,1,© OpenStreetMap contributors,Open Database License,https://www.openstreetmap.org/copyright
Saint James,1,48.5232,-1.32375,"50240 Saint-James, Frankreich",,,,50240,,Saint-James,Manche,Normandie,NOR,Frankreich,fr,1,1,© OpenStreetMap contributors,Open Database License,https://www.openstreetmap.org/copyright
Saint-Germain,2,48.4324928,6.3386744,"54290 Saint-Germain, Frankreich",,,,54290,,Saint-Germain,Mörthe und Mosel,Grand Est,GES,Frankreich,fr,1,1,© OpenStreetMap contributors,Open Database License,https://www.openstreetmap.org/copyright
Salisbury,4,51.0690613,-1.7954134,"Salisbury, ENG, Vereinigtes Königreich",,,,,WIL,Salisbury,Wiltshire,England,ENG,Vereinigtes Königreich,gb,1,1,© OpenStreetMap contributors,Open Database License,https://www.openstreetmap.org/copyright
Salzburg,1,50.6667428,8.0474914,"Salzburg, RP, Deutschland",,,,,,Salzburg,Westerwaldkreis,Rheinland-Pfalz,RP,Deutschland,de,1,1,© OpenStreetMap contributors,Open Database License,https://www.openstreetmap.org/copyright
Salzdahlum,7,52.20291715,10.587637332989853,"Salzdahlum, Wolfenbüttel, NI, Deutschland",,Salzdahlum,,,,Wolfenbüttel,Landkreis Wolfenbüttel,Niedersachsen,NI,Deutschland,de,1,1,© OpenStreetMap contributors,Open Database License,https://www.openstreetmap.org/copyright
Schulenburg,14,52.4419685,9.6734712,"Schulenburg (Langenhagen), NI, Deutschland",,,,,,Langenhagen,Region Hannover,Niedersachsen,NI,Deutschland,de,1,1,© OpenStreetMap contributors,Open Database License,https://www.openstreetmap.org/copyright
Schwedt,1,53.0586366,14.2840858,"16303 Schwedt/Oder, Deutschland",,,,16303,,Schwedt/Oder,Uckermark,Brandenburg,BB,Deutschland,de,0.9,0.9,© OpenStreetMap contributors,Open Database License,https://www.openstreetmap.org/copyright
Schönhausen,2,52.5824785,12.0378139,"Schönhausen (Elbe), ST, Deutschland",,,,,,Schönhausen (Elbe),Stendal,Sachsen-Anhalt,ST,Deutschland,de,0.9,0.9,© OpenStreetMap contributors,Open Database License,https://www.openstreetmap.org/copyright
Seesen,1,51.8905566,10.1703902,"38723 Seesen, Deutschland",,,,38723,,Seesen,Landkreis Goslar,Niedersachsen,NI,Deutschland,de,1,1,© OpenStreetMap contributors,Open Database License,https://www.openstreetmap.org/copyright
Sesto,2,46.7027433,12.350544,"39030 Sexten, Italien",,,,39030,,Sexten,Bozen,Trentino-Südtirol,,Italien,it,1,1,© OpenStreetMap contributors,Open Database License,https://www.openstreetmap.org/copyright
Shrewsbury,3,52.707755,-2.7540658,"Shrewsbury, ENG, Vereinigtes Königreich",,,,,SHR,Shrewsbury,Shropshire,England,ENG,Vereinigtes Königreich,gb,1,1,© OpenStreetMap contributors,Open Database License,https://www.openstreetmap.org/copyright
Siebenbürgen,3,46.5971623,24.3740295,"Siebenbürgen, 547065 Bandorf, Rumänien",,,Siebenbürgen,547065,,Bandorf,Mieresch,,,Rumänien,ro,1,1,© OpenStreetMap contributors,Open Database License,https://www.openstreetmap.org/copyright
Siena,1,43.3185536,11.3316533,"53100 Siena, Italien",,,,53100,SI,Siena,Siena,Toskana,,Italien,it,1,1,© OpenStreetMap contributors,Open Database License,https://www.openstreetmap.org/copyright
Singen,1,47.7617515,8.8348709,"78224 Singen (Hohentwiel), Deutschland",,,,78224,,Singen (Hohentwiel),Landkreis Konstanz,Baden-Württemberg,BW,Deutschland,de,0.9,0.9,© OpenStreetMap contributors,Open Database License,https://www.openstreetmap.org/copyright
Smyrna,1,38.4237433,27.1428019,"35240 Konak (Izmir), Türkei",,,Izmir,35240,,Izmir,Izmir,Ägäisregion,,Türkei,tr,1,1,© OpenStreetMap contributors,Open Database License,https://www.openstreetmap.org/copyright
Soest,1,49.6242727,6.4610947,"Söst, RP, Deutschland",,,,,,Söst,Landkreis Trier-Saarburg,Rheinland-Pfalz,RP,Deutschland,de,1,1,© OpenStreetMap contributors,Open Database License,https://www.openstreetmap.org/copyright
Sorbonne,4,48.850422,2.340548,"Sorbonne, Libreville, Estuaire, Gabun",Sorbonne,,Sorbonne,,,Libreville,Libreville,Estuaire,,Gabun,ga,1,1,© OpenStreetMap contributors,Open Database License,https://www.openstreetmap.org/copyright
Spandau,4,52.5192672,13.195439,"Spandau, Berlin, Deutschland",,Spandau,,,,Berlin,,,,Deutschland,de,1,1,© OpenStreetMap contributors,Open Database License,https://www.openstreetmap.org/copyright
Stade,2,53.599794,9.475438,"Stade, NI, Deutschland",,,,,,Stade,Landkreis Stade,Niedersachsen,NI,Deutschland,de,1,1,© OpenStreetMap contributors,Open Database License,https://www.openstreetmap.org/copyright
Stamford,8,52.653656,-0.483421,"Stamford, CT, Vereinigte Staaten von Amerika",,,,,,Stamford,Western Connecticut Planning Region,Connecticut,CT,Vereinigte Staaten von Amerika,us,1,1,© OpenStreetMap contributors,Open Database License,https://www.openstreetmap.org/copyright
Steevenswert,1,51.131304,5.846021,,,,,,,,,,,,,,,,,
Sternberg,1,53.7118374,11.8288314,"19406 Sternberg, Deutschland",,,,19406,,Sternberg,Ludwigslust-Parchim,Mecklenburg-Vorpommern,MV,Deutschland,de,1,1,© OpenStreetMap contributors,Open Database License,https://www.openstreetmap.org/copyright
Stettin,2,53.4301818,14.5509623,"Stettin, Woiwodschaft Westpommern, Polen",,,,,,Stettin,,Woiwodschaft Westpommern,,Polen,pl,1,1,© OpenStreetMap contributors,Open Database License,https://www.openstreetmap.org/copyright
Stockholm,2,59.3251172,18.0710935,"Stockholm, Schweden",,,,,,Stockholm,Provinz Stockholm,,,Schweden,se,1,1,© OpenStreetMap contributors,Open Database License,https://www.openstreetmap.org/copyright
Sulzbach,3,50.302682,7.7518932,"Sulzbach, RP, Deutschland",,,,,,Sulzbach,Rhein-Lahn-Kreis,Rheinland-Pfalz,RP,Deutschland,de,1,1,© OpenStreetMap contributors,Open Database License,https://www.openstreetmap.org/copyright
Tangermünde,1,52.5431104,11.9722524,"39590 Tangermünde, Deutschland",,,,39590,,Tangermünde,Stendal,Sachsen-Anhalt,ST,Deutschland,de,1,1,© OpenStreetMap contributors,Open Database License,https://www.openstreetmap.org/copyright
Temeswar,2,45.7538355,21.2257474,"Temeswar, Rumänien",,,,,,Temeswar,Temesch,,,Rumänien,ro,1,1,© OpenStreetMap contributors,Open Database License,https://www.openstreetmap.org/copyright
Teplitz,3,50.6406644,13.8244461,"Teplitz, Nordwesten, Tschechien",,,,,,Teplitz,Aussiger Region,Nordwesten,,Tschechien,cz,1,1,© OpenStreetMap contributors,Open Database License,https://www.openstreetmap.org/copyright
Tettau,1,51.4314023,13.7305944,"Tettau, BB, Deutschland",,,,,,Tettau,Oberspreewald-Lausitz,Brandenburg,BB,Deutschland,de,1,1,© OpenStreetMap contributors,Open Database License,https://www.openstreetmap.org/copyright
Thorn,1,53.0102721,18.6048094,"Thorn, Woiwodschaft Kujawien-Pommern, Polen",,,,,,Thorn,,Woiwodschaft Kujawien-Pommern,,Polen,pl,1,1,© OpenStreetMap contributors,Open Database License,https://www.openstreetmap.org/copyright
Tokaj,1,48.1235534,21.4113895,"Tokey, Nordungarn, Ungarn",,,,,,Tokey,Komitat Borsod-Abaúj-Zemplén,Nordungarn,,Ungarn,hu,1,1,© OpenStreetMap contributors,Open Database License,https://www.openstreetmap.org/copyright
Torgau,6,51.5581272,13.0046538,"Torgau, SN, Deutschland",,,,,,Torgau,Nordsachsen,Sachsen,SN,Deutschland,de,1,1,© OpenStreetMap contributors,Open Database License,https://www.openstreetmap.org/copyright
Trier,2,49.7596208,6.6441878,"Trier, RP, Deutschland",,,,,,Trier,,Rheinland-Pfalz,RP,Deutschland,de,1,1,© OpenStreetMap contributors,Open Database License,https://www.openstreetmap.org/copyright
Tönning,4,54.3188928,8.9437049,"25832 Tönning, Deutschland",,,,25832,,Tönning,Nordfriesland,Schleswig-Holstein,SH,Deutschland,de,1,1,© OpenStreetMap contributors,Open Database License,https://www.openstreetmap.org/copyright
Ulm,3,48.3984968,9.9912458,"Ulm, BW, Deutschland",,,,,,Ulm,,Baden-Württemberg,BW,Deutschland,de,1,1,© OpenStreetMap contributors,Open Database License,https://www.openstreetmap.org/copyright
Ursel,18,51.6545671,6.4104753,"Ursel, 46509 Xanten, Deutschland",,,Ursel,46509,,Xanten,Kreis Wesel,Nordrhein-Westfalen,NW,Deutschland,de,1,1,© OpenStreetMap contributors,Open Database License,https://www.openstreetmap.org/copyright
Utrecht,4,52.0907006,5.1215634,"Utrecht, UT, Niederlande",,,,,,Utrecht,,Utrecht,UT,Niederlande,nl,1,1,© OpenStreetMap contributors,Open Database License,https://www.openstreetmap.org/copyright
Venedig,11,45.4371908,12.3345898,"30121-30176 Venedig, Italien",,,,30121-30176,VE,Venedig,Venezia,Venetien,,Italien,it,1,1,© OpenStreetMap contributors,Open Database License,https://www.openstreetmap.org/copyright
Venlo,1,51.3702109,6.1688954,"Venlo, LI, Niederlande",,,,,,Venlo,,Limburg,LI,Niederlande,nl,1,1,© OpenStreetMap contributors,Open Database License,https://www.openstreetmap.org/copyright
Vigo,1,42.2376602,-8.7247205,"Vigo, Galicien, Spanien",,,,,,Vigo,Vigo,Galicien,,Spanien,es,1,1,© OpenStreetMap contributors,Open Database License,https://www.openstreetmap.org/copyright
Wangenheim,3,51.0194279,10.6251214,"Wangenheim (Nessetal), TH, Deutschland",,,,,,Nessetal,Landkreis Gotha,Thüringen,TH,Deutschland,de,1,1,© OpenStreetMap contributors,Open Database License,https://www.openstreetmap.org/copyright
Warschau,17,52.2319581,21.0067249,"Warschau, Woiwodschaft Masowien, Polen",,,,,,Warschau,,Woiwodschaft Masowien,,Polen,pl,1,1,© OpenStreetMap contributors,Open Database License,https://www.openstreetmap.org/copyright
Wartenberg,16,52.6380786,11.5103221,"Wartenberg (Bismark (Altmark)), ST, Deutschland",,,,,,Bismark (Altmark),Stendal,Sachsen-Anhalt,ST,Deutschland,de,1,1,© OpenStreetMap contributors,Open Database License,https://www.openstreetmap.org/copyright
Wesel,1,51.6576909,6.617087,"Wesel, NW, Deutschland",,,,,,Wesel,Kreis Wesel,Nordrhein-Westfalen,NW,Deutschland,de,1,1,© OpenStreetMap contributors,Open Database License,https://www.openstreetmap.org/copyright
Weyhausen,1,52.4627787,10.7193022,"38554 Weyhausen, Deutschland",,,,38554,,Weyhausen,Gifhorn,Niedersachsen,NI,Deutschland,de,1,1,© OpenStreetMap contributors,Open Database License,https://www.openstreetmap.org/copyright
Wien,82,48.2083537,16.3725042,"Wien, Österreich",,,,,,Wien,,,,Österreich,at,1,1,© OpenStreetMap contributors,Open Database License,https://www.openstreetmap.org/copyright
Wildeshausen,2,52.897103,8.4364342,"27793 Wildeshausen, Deutschland",,,,27793,,Wildeshausen,Landkreis Oldenburg,Niedersachsen,NI,Deutschland,de,1,1,© OpenStreetMap contributors,Open Database License,https://www.openstreetmap.org/copyright
Wismar,1,53.8909832,11.4647932,"Wismar, MV, Deutschland",,,,,,Wismar,Nordwestmecklenburg,Mecklenburg-Vorpommern,MV,Deutschland,de,1,1,© OpenStreetMap contributors,Open Database License,https://www.openstreetmap.org/copyright
Wittenberg,3,51.8666527,12.646761,"Wittenberg, ST, Deutschland",,,,,,Wittenberg,Wittenberg,Sachsen-Anhalt,ST,Deutschland,de,1,1,© OpenStreetMap contributors,Open Database License,https://www.openstreetmap.org/copyright
Wolfenbüttel,69,52.1625283,10.5348215,"Wolfenbüttel, NI, Deutschland",,,,,,Wolfenbüttel,Landkreis Wolfenbüttel,Niedersachsen,NI,Deutschland,de,1,1,© OpenStreetMap contributors,Open Database License,https://www.openstreetmap.org/copyright
York,1,53.9590555,-1.0815361,"York, YO1 8RS, Vereinigtes Königreich",,,York,YO1 8RS,YOR,York,York,England,ENG,Vereinigtes Königreich,gb,1,1,© OpenStreetMap contributors,Open Database License,https://www.openstreetmap.org/copyright
Zell,1,50.7305045,9.1955275,"Zell, HE, Deutschland",,,,,,Zell,Vogelsbergkreis,Hessen,HE,Deutschland,de,1,1,© OpenStreetMap contributors,Open Database License,https://www.openstreetmap.org/copyright
Zellerfeld,2,51.816005,10.3370282,"Zellerfeld, Clausthal-Zellerfeld, NI, Deutschland",Zellerfeld,Clausthal-Zellerfeld,Zellerfeld,38678,,Clausthal-Zellerfeld,Landkreis Goslar,Niedersachsen,NI,Deutschland,de,1,1,© OpenStreetMap contributors,Open Database License,https://www.openstreetmap.org/copyright
Zerbst,2,51.96973975,12.07454635351719,"Zerbst, Zerbst/Anhalt, ST, Deutschland",,Zerbst,,39261,,Zerbst/Anhalt,Anhalt-Bitterfeld,Sachsen-Anhalt,ST,Deutschland,de,1,1,© OpenStreetMap contributors,Open Database License,https://www.openstreetmap.org/copyright
Ziesar,1,52.230814699999996,12.380330907840996,"Ziesar, BB, Deutschland",,,,,,Ziesar,Potsdam-Mittelmark,Brandenburg,BB,Deutschland,de,1,1,© OpenStreetMap contributors,Open Database License,https://www.openstreetmap.org/copyright
Zweibrücken,3,49.248655,7.3641981,"66482 Zweibrücken, Deutschland",,,,66482,,Zweibrücken,,Rheinland-Pfalz,RP,Deutschland,de,1,1,© OpenStreetMap contributors,Open Database License,https://www.openstreetmap.org/copyright